{
"type": "FeatureCollection",
"totalFeatures": 25,
"numberMatched": 25,
"numberReturned": 25,
"timeStamp": "2024-06-06T05:53:46.999Z",
"name": "poi",
"crs": { "type": "name", "properties": { "name": "urn:ogc:def:crs:OGC:1.3:CRS84" } },
"features": [
{ "type": "Feature", "id": "poi.fid--450431b6_18fec0f6268_-18eb", "geometry_name": "wkb_geometry", "properties": { "ogc_fid": 1, "name": "Dom, Domschatzkammer, Fischmarkt", "innenstadt": "ja", "icon": { "id": "POIIcon", "svg": "<?xml version=\"1.0\" encoding=\"UTF-8\" standalone=\"no\"?><svg   xmlns:dc=\"http://purl.org/dc/elements/1.1/\"   xmlns:cc=\"http://creativecommons.org/ns#\"   xmlns:rdf=\"http://www.w3.org/1999/02/22-rdf-syntax-ns#\"   xmlns:svg=\"http://www.w3.org/2000/svg\"   xmlns=\"http://www.w3.org/2000/svg\"   viewBox=\"0 0 2666.6667 2666.6667\"   height=\"2666.6667\"   width=\"2666.6667\"   xml:space=\"preserve\"   id=\"svg2\"   version=\"1.1\"><metadata     id=\"metadata8\"><rdf:RDF><cc:Work         rdf:about=\"\"><dc:format>image/svg+xml</dc:format><dc:type           rdf:resource=\"http://purl.org/dc/dcmitype/StillImage\" /></cc:Work></rdf:RDF></metadata><defs     id=\"defs6\" /><g     transform=\"matrix(1.3333333,0,0,-1.3333333,0,2666.6667)\"     id=\"g10\"><g       transform=\"scale(0.1)\"       id=\"g12\"><g         transform=\"scale(1.22699)\"         id=\"g14\"><path           id=\"path16\"           style=\"fill:#dcbf03;fill-opacity:1;fill-rule:nonzero;stroke:none\"           d=\"m 0,8150 c 0,4501.2 3649.05,8150 8150,8150 4501.2,0 8150,-3648.8 8150,-8150 C 16300,3649.08 12651.2,0 8150,0 3649.05,0 0,3649.08 0,8150\" /></g><path         id=\"path18\"         style=\"fill:#ffffff;fill-opacity:1;fill-rule:nonzero;stroke:none\"         d=\"m 13967.8,11717.1 c 0,2046.8 -1776.4,3707.4 -3967.6,3707.4 -2191.61,0 -3968.02,-1660.6 -3968.02,-3707.4 0,-1107.8 521.1,-2101.4 1346.17,-2781.4 h -7.7 c 0,0 1426.85,-968.9 2497.69,-4359.7 l 749.26,-0.3 c 0,0 321.3,2768.4 2462.6,4775.2 l -28.6,-2.8 c 572.8,642.7 916.2,1468.7 916.2,2369 m -3967.6,-1716.4 c -870.39,0 -1577.5,705.9 -1577.5,1576.2 0,871.6 707.11,1577.5 1577.5,1577.5 870.9,0 1577.1,-705.9 1577.1,-1577.5 0,-870.3 -706.2,-1576.2 -1577.1,-1576.2\" /></g></g></svg>" } }, "geometry": { "type": "Point", "coordinates": [ 6.08277609, 50.77476376 ] } },
{ "type": "Feature", "id": "poi.fid--450431b6_18fec0f6268_-18ea", "geometry_name": "wkb_geometry", "properties": { "ogc_fid": 3, "name": "Tourist-Info, Elisenbrunnen, Elisengarten", "innenstadt": "ja", "icon": { "id": "POIIcon" } }, "geometry": { "type": "Point", "coordinates": [ 6.08635909, 50.77413978 ] } },
{ "type": "Feature", "id": "poi.fid--450431b6_18fec0f6268_-18e9", "geometry_name": "wkb_geometry", "properties": { "ogc_fid": 5, "name": "Büchel, Bahkauv", "innenstadt": "ja", "icon": { "id": "POIIcon" } }, "geometry": { "type": "Point", "coordinates": [ 6.08605793, 50.77581473 ] } },
{ "type": "Feature", "id": "poi.fid--450431b6_18fec0f6268_-18e8", "geometry_name": "wkb_geometry", "properties": { "ogc_fid": 6, "name": "Stadttheater, Kapuzinerkarree (Kino)", "innenstadt": "ja", "icon": { "id": "POIIcon" } }, "geometry": { "type": "Point", "coordinates": [ 6.08681834, 50.77212556 ] } },
{ "type": "Feature", "id": "poi.fid--450431b6_18fec0f6268_-18e7", "geometry_name": "wkb_geometry", "properties": { "ogc_fid": 7, "name": "Fußgängerzone Adalbertstraße", "innenstadt": "ja", "icon": { "id": "POIIcon" } }, "geometry": { "type": "Point", "coordinates": [ 6.09181205, 50.77540016 ] } },
{ "type": "Feature", "id": "poi.fid--450431b6_18fec0f6268_-18e6", "geometry_name": "wkb_geometry", "properties": { "ogc_fid": 13, "name": "Bushof, Altes Kurhaus, Stadtbibliothek und VHS", "innenstadt": "ja", "icon": { "id": "POIIcon" } }, "geometry": { "type": "Point", "coordinates": [ 6.09015289, 50.77748438 ] } },
{ "type": "Feature", "id": "poi.fid--450431b6_18fec0f6268_-18e5", "geometry_name": "wkb_geometry", "properties": { "ogc_fid": 24, "name": "CHIO Gelände", "innenstadt": "nein", "icon": { "id": "POIIcon" } }, "geometry": { "type": "Point", "coordinates": [ 6.09574987, 50.79531652 ] } },
{ "type": "Feature", "id": "poi.fid--450431b6_18fec0f6268_-18e4", "geometry_name": "wkb_geometry", "properties": { "ogc_fid": 27, "name": "Lousberg", "innenstadt": "nein", "icon": { "id": "POIIcon" } }, "geometry": { "type": "Point", "coordinates": [ 6.0822085, 50.78576221 ] } },
{ "type": "Feature", "id": "poi.fid--450431b6_18fec0f6268_-18e3", "geometry_name": "wkb_geometry", "properties": { "ogc_fid": 14, "name": "Hotmannspief / Alexanderstraße", "innenstadt": "ja", "icon": { "id": "POIIcon" } }, "geometry": { "type": "Point", "coordinates": [ 6.08858673, 50.77837285 ] } },
{ "type": "Feature", "id": "poi.fid--450431b6_18fec0f6268_-18e2", "geometry_name": "wkb_geometry", "properties": { "ogc_fid": 15, "name": "Ponttor, Studierendenviertel Pontstraße, Internationales Zeitungsmuseum", "innenstadt": "ja", "icon": { "id": "POIIcon" } }, "geometry": { "type": "Point", "coordinates": [ 6.0801638, 50.78027474 ] } },
{ "type": "Feature", "id": "poi.fid--450431b6_18fec0f6268_-18e1", "geometry_name": "wkb_geometry", "properties": { "ogc_fid": 19, "name": "Alexianerkrankenhaus", "innenstadt": "ja", "icon": { "id": "POIIcon" } }, "geometry": { "type": "Point", "coordinates": [ 6.08174661, 50.77217789 ] } },
{ "type": "Feature", "id": "poi.fid--450431b6_18fec0f6268_-18e0", "geometry_name": "wkb_geometry", "properties": { "ogc_fid": 20, "name": "Bahnhof Schanz, Rosviertel, Jakobstraße", "innenstadt": "ja", "icon": { "id": "POIIcon" } }, "geometry": { "type": "Point", "coordinates": [ 6.07510874, 50.77074284 ] } },
{ "type": "Feature", "id": "poi.fid--450431b6_18fec0f6268_-18df", "geometry_name": "wkb_geometry", "properties": { "ogc_fid": 21, "name": "Luisenhospital", "innenstadt": "ja", "icon": { "id": "POIIcon" } }, "geometry": { "type": "Point", "coordinates": [ 6.07653842, 50.76759406 ] } },
{ "type": "Feature", "id": "poi.fid--450431b6_18fec0f6268_-18de", "geometry_name": "wkb_geometry", "properties": { "ogc_fid": 2, "name": "Rathaus, Markt, Centre Charlemagne", "innenstadt": "ja", "icon": { "id": "POIIcon" } }, "geometry": { "type": "Point", "coordinates": [ 6.08323724, 50.7761341 ] } },
{ "type": "Feature", "id": "poi.fid--450431b6_18fec0f6268_-18dd", "geometry_name": "wkb_geometry", "properties": { "ogc_fid": 4, "name": "Krämerstraße (Standesamt), Hof mit Couven Museum", "innenstadt": "ja", "icon": { "id": "POIIcon" } }, "geometry": { "type": "Point", "coordinates": [ 6.08468281, 50.77580749 ] } },
{ "type": "Feature", "id": "poi.fid--450431b6_18fec0f6268_-18dc", "geometry_name": "wkb_geometry", "properties": { "ogc_fid": 8, "name": "Fußgängerzone Großkölnstraße", "innenstadt": "ja", "icon": { "id": "POIIcon" } }, "geometry": { "type": "Point", "coordinates": [ 6.08634786, 50.77732306 ] } },
{ "type": "Feature", "id": "poi.fid--450431b6_18fec0f6268_-18db", "geometry_name": "wkb_geometry", "properties": { "ogc_fid": 16, "name": "RWTH-Hauptgebäude, Super C", "innenstadt": "ja", "icon": { "id": "POIIcon" } }, "geometry": { "type": "Point", "coordinates": [ 6.07825276, 50.77804908 ] } },
{ "type": "Feature", "id": "poi.fid--450431b6_18fec0f6268_-18da", "geometry_name": "wkb_geometry", "properties": { "ogc_fid": 17, "name": "Westbahnhof, Audimax, C.A.R.L.", "innenstadt": "ja", "icon": { "id": "POIIcon" } }, "geometry": { "type": "Point", "coordinates": [ 6.07360284, 50.78036109 ] } },
{ "type": "Feature", "id": "poi.fid--450431b6_18fec0f6268_-18d9", "geometry_name": "wkb_geometry", "properties": { "ogc_fid": 22, "name": "Ludwig Forum", "innenstadt": "nein", "icon": { "id": "POIIcon" } }, "geometry": { "type": "Point", "coordinates": [ 6.10180306, 50.78130144 ] } },
{ "type": "Feature", "id": "poi.fid--450431b6_18fec0f6268_-18d8", "geometry_name": "wkb_geometry", "properties": { "ogc_fid": 23, "name": "Tivoli", "innenstadt": "nein", "icon": { "id": "POIIcon" } }, "geometry": { "type": "Point", "coordinates": [ 6.09733199, 50.79312712 ] } },
{ "type": "Feature", "id": "poi.fid--450431b6_18fec0f6268_-18d7", "geometry_name": "wkb_geometry", "properties": { "ogc_fid": 18, "name": "Lindenplatz, Johannisbach", "innenstadt": "ja", "icon": { "id": "POIIcon" } }, "geometry": { "type": "Point", "coordinates": [ 6.0782453, 50.77531174 ] } },
{ "type": "Feature", "id": "poi.fid--450431b6_18fec0f6268_-18d6", "geometry_name": "wkb_geometry", "properties": { "ogc_fid": 9, "name": "Fußgängerzone Annastraße", "innenstadt": "ja", "icon": { "id": "POIIcon" } }, "geometry": { "type": "Point", "coordinates": [ 6.08203612, 50.77421302 ] } },
{ "type": "Feature", "id": "poi.fid--450431b6_18fec0f6268_-18d5", "geometry_name": "wkb_geometry", "properties": { "ogc_fid": 10, "name": "Hauptbahnhof, Marschiertor", "innenstadt": "ja", "icon": { "id": "POIIcon" } }, "geometry": { "type": "Point", "coordinates": [ 6.08885057, 50.76840516 ] } },
{ "type": "Feature", "id": "poi.fid--450431b6_18fec0f6268_-18d4", "geometry_name": "wkb_geometry", "properties": { "ogc_fid": 11, "name": "Normaluhr, Surmondt-Ludwig-Museum", "innenstadt": "ja", "icon": { "id": "POIIcon" } }, "geometry": { "type": "Point", "coordinates": [ 6.09539805, 50.77107867 ] } },
{ "type": "Feature", "id": "poi.fid--450431b6_18fec0f6268_-18d3", "geometry_name": "wkb_geometry", "properties": { "ogc_fid": 12, "name": "Eurogress, Stadtgarten", "innenstadt": "ja", "icon": { "id": "POIIcon" } }, "geometry": { "type": "Point", "coordinates": [ 6.09234887, 50.78152672 ] } }
]
}
